continent,location,lat,long,total_cases,total_deaths,case_fatality_rate,total_tests,positive_rate,hospital_beds_per_thousand,num_physicians_per_thousand,handwashing_facilities,gdp_per_capita,current_health_exp_%gdp,govt_health_exp_%totalgovtexp,population,population_density,0_to_14(%),15_to_64(%),65_and_above(%),extreme_poverty,human_development_index,annual_intl_arrivals_thousands,total_cases_log,total_deaths_log,total_tests_log,gdp_per_capita_log,population_log,population_density_log,annual_intl_arrivals_thou_log
Asia,Afghanistan,33.93911000000001,67.70995300000001,56290,2469,0.04386214247646118,2251884,0.186,0.5,2.7800000000000002,37.746,1803.987,11.777199999999999,2.3190999999999997,38928341,54.422000000000004,42.47227139,54.91193439999999,2.615794214,6.4,0.511,1035,10.938272178458073,7.81156848934518,14.62727775714595,7.497754494388179,17.477233103728686,3.9967684838742055,6.942156705699469
Europe,Albania,41.1533,20.1683,123641,2204,0.01782580212065577,517102,0.17300000000000001,2.8899999999999997,12.16,86.979,11803.431,8.095600000000001,14.678899999999999,2877800,104.871,17.399564100000003,68.39780528000001,14.20263062,1.1,0.7949999999999999,5340,11.725137484210757,7.698029170272805,13.155995426100677,9.376145530902335,14.872536671311455,4.652731023416374,8.582980931954241
Africa,Algeria,28.033900000000003,1.6596,116750,3077,0.026355460385438973,979476,0.093,1.9,17.19,83.74100000000001,13913.839,6.3743,10.734099999999998,43851043,17.348,30.550378610000003,62.89684351,6.552777882,0.5,0.748,2657,11.667790175531144,8.031710375322042,13.794773013769456,9.540639235337153,17.59630906213243,2.8534772259731196,7.884952945759814
Europe,Andorra,42.5063,1.5217999999999998,11809,115,0.009738335168092133,162071,0.094,4.51,33.33,86.979,31400.84,10.3206,14.0176,77265,163.755,15.13545128,64.70613601,20.15841271,0.5,0.8680000000000001,3042,9.376617231601282,4.74493212836325,11.995789789806512,10.354589923130884,11.254996350667795,5.098371408400342,8.020270472819238
Africa,Angola,-11.2027,17.873900000000003,22031,533,0.02419318233398393,979476,0.043000000000000003,1.1,2.15,26.664,5819.495,2.7915,5.4284,32866268,23.89,46.62202503000001,51.17863322000001,2.1993417500000003,23.8,0.581,218,10.000205831412565,6.278521424165844,13.794773013769456,8.66896876720132,17.30795740101374,3.173459961337718,5.384495062789089
North America,Anguilla,18.220599999999997,-63.068600000000004,2254,56,0.012422360248447204,186726,0.04,2.397,33.33,85.198,13593.876999999999,6.1364,8.9967,15002,281.787,23.5312194,66.71857852,9.677419355000001,2.2,0.759,395,7.720461694599722,4.02535169073515,12.1373975806802,9.51737474975619,9.615938804529582,5.641151466391949,5.978885764901122
North America,Antigua and Barbuda,17.0608,-61.796400000000006,1122,28,0.024955436720142603,649297,0.089,3.8,29.56,87.202,21490.943000000003,4.5335,9.4786,97928,231.845,21.95473548,68.99030046000001,9.054964064,2.2,0.778,269,7.022868086082641,3.332204510175204,13.383645518125515,9.975386869548645,11.491987793755348,5.44606904493747,5.594711379601839
South America,Argentina,-38.4161,-63.6167,2301389,55368,0.024058514227712047,7106703,0.21800000000000003,5,39.9,67.779,18933.907000000003,9.124299999999998,16.0513,45195777,16.177000000000003,24.595525879999997,64.16136585,11.243108269999999,0.6,0.8450000000000001,6942,14.649023411660758,10.9217570885217,15.776548981151096,9.848709614877894,17.62651421123414,2.783590480347557,8.845345196421732
Asia,Armenia,40.069100000000006,45.0382,189540,3450,0.01820196264640709,822634,0.186,4.2,44.02,94.043,8787.58,10.362700000000002,5.2735,2963234,102.93100000000001,20.76595201,67.75038027,11.48366772,1.8,0.776,1652,12.152355363024187,8.146129510025405,13.62026666628511,9.081094639918163,14.901791797450244,4.634058860831797,7.409741954080923
Oceania,Australia,-25,133,29259,909,0.031067363888034452,15334583,0,3.84,36.78,82.502,44648.71,9.2059,17.7973,25499881,3.202,19.275446709999997,64.80335154,15.921201749999998,0.5,0.9440000000000001,9246,10.283942497640124,6.812345094177479,16.545621162464315,10.706580694509901,17.054184343451098,1.1637756145745228,9.13194630454817
Europe,Austria,47.5162,14.5501,533786,9231,0.017293447186700287,21147134,0.038,7.37,51.7,97.164,45436.686,10.396600000000001,15.305400000000002,9006400,106.74900000000001,14.361857630000001,66.56253608,19.075606289999996,0.7,0.922,30816,13.187750288557295,9.130322663990151,16.867014946000253,10.724075119397385,16.0134459936919,4.670480284383358,10.335789314597852
Asia,Azerbaijan,40.143100000000004,47.5769,254370,3464,0.01361795809254236,3112999,0.03,4.7,34.46,83.24100000000001,15847.419,6.6518,2.8143,10139175,119.309,23.441919849999998,70.11169103,6.446389120000001,0.7,0.756,2633,12.446545178966158,8.150179269682326,14.951097128190156,9.670761926928979,16.131917191870585,4.781716766325469,7.87587915949631
North America,Bahamas,25.025885000000002,-78.035889,8935,188,0.021040850587576945,1284835,0.054000000000000006,2.9,20.07,87.202,27717.847,5.7589,11.2508,393248,39.497,21.078635799999997,68.62061129,9.880435323000002,1.6,0.8140000000000001,1633,9.097731427593528,5.236441962829949,14.066140863397612,10.229831780734735,12.882195735084323,3.6762247196556883,7.398174092970465
Asia,Bahrain,26.0275,50.55,140818,513,0.003643000184635487,3483259,0.048,2,9.26,95.803,43290.704999999994,4.7481,8.4938,1701583,1935.9070000000002,18.71869615,78.76249412,2.5188097289999996,0.2,0.8520000000000001,12045,11.855223555444217,6.240275845170769,15.06347890776637,10.675693225819703,14.347069552221173,7.568331229492617,9.396404915048972
Asia,Bangladesh,23.685,90.35629999999999,591806,8869,0.01498632997975688,4511802,0.118,0.8,5.81,34.808,3523.984,2.2742,2.9945,164689383,1265.036,27.214365380000004,67.60528327,5.180351347999999,14.8,0.632,1026,13.290934157457176,9.090317329376452,15.322207188218423,8.167347446750643,18.91957173041068,7.142855859254709,6.933423025730715
North America,Barbados,13.1939,-59.5432,3609,41,0.011360487669714602,802126,0.09,5.8,24.84,88.46900000000001,16978.068000000003,6.779100000000001,9.0803,287371,664.463,17.05043115,66.71857852,16.23099033,2.2,0.8140000000000001,680,8.19118600464279,3.713572066704308,13.595020981740523,9.739677672473071,12.568529342873353,6.498979195639928,6.522092798170152
Europe,Belarus,53.7098,27.9534,317631,2211,0.0069609074680997765,5272490,0.07500000000000001,11,51.91,86.979,17167.967000000004,5.9258,10.6191,9449321,46.858,17.03632015,67.76283849999999,15.20084135,1,0.8230000000000001,11502,12.668645610644756,7.701200180857446,15.478013294699792,9.75080054268783,16.061453445036605,3.847121751844448,9.3502762122737
Europe,Belgium,50.8333,4.469936,866063,22870,0.026406854928567553,10770769,0.07700000000000001,5.64,30.71,97.164,42658.576,10.3387,15.3139,11589616,375.564,17.05820304,63.93523089000001,19.006566069999998,0.2,0.931,9119,13.671712933166443,10.037581287016828,16.192346448626278,10.66098361125255,16.265620082756705,5.928428896095157,9.118115427933665
North America,Belize,17.1899,-88.49760000000002,12415,317,0.02553362867498993,802126,0.132,1.3,11.229999999999999,90.083,7824.362000000001,5.642799999999999,10.991,397621,16.426,29.704395760000004,65.42821497000001,4.867389259999999,3.2,0.716,489,9.426660697942268,5.75890177387728,13.595020981740523,8.964997478537988,12.893254569271202,2.7988654453180004,6.192362489474872
Africa,Benin,9.3077,2.3157999999999994,7100,90,0.01267605633802817,267671,0.07800000000000001,0.5,0.7899999999999999,11.035,2064.236,3.7186,4.575200000000001,12123198,99.11,42.20551877000001,54.52959631000001,3.264884925,49.6,0.545,295,8.867850063029406,4.499809670330265,12.497513893419907,7.632515461150281,16.31063136518629,4.596230344418617,5.68697535633982
North America,Bermuda,32.30779999999999,-64.7505,7954,188,0.021040850587576945,2091666,0.054000000000000006,2.9,26.759999999999998,87.202,50669.315,5.7589,11.211199999999998,62273,1308.82,20.26118068,66.71857852,11.118208019999997,1.3,0.7959999999999999,375,8.981430225767635,5.236441962829949,14.553471435588861,10.83307577953113,11.039283223998446,7.176881246905321,5.926926025970411
Asia,Bhutan,27.514200000000002,90.43360000000001,871,1,0.001148105625717566,584052,0,1.7,4.24,79.807,8708.597,3.1870000000000003,7.900600000000001,771612,21.188,25.34019489,68.56683074,6.092974372999999,1.5,0.654,274,6.769641976852503,0,13.277745298942332,9.07206597765261,13.556237111992312,3.0534349836822803,5.6131281063880705
South America,Bolivia,-16.2902,-63.5887,269302,12165,0.04517233440524021,864692,0.119,1.1,13.05,25.383,6885.829000000001,6.2298,11.7768,11673029,10.202,30.625261660000003,62.036106700000005,7.338631646,7.1,0.718,1181,12.503588705433827,9.406318255217624,13.670128653142106,8.837220810595644,16.272791524997345,2.322583779500735,7.074116816197362
Europe,Bosnia and Herzegovina,43.9159,17.679100000000002,162032,6220,0.03838747901649057,764199,0.32999999999999996,3.5,21.62,97.164,11713.894999999999,8.9317,15.4748,3280815,68.49600000000001,14.69375947,68.10508936999999,17.201151170000003,0.2,0.7799999999999999,1053,11.995549125572067,8.735525185733225,13.54658350543611,9.368531022976294,15.00360242510513,4.22677534940259,6.959398512133975
Africa,Botswana,-22.3285,24.684900000000003,38466,506,0.013154474081006604,1218744,0.043000000000000003,1.8,5.2700000000000005,44.6,15807.374,6.1346,14.315500000000002,2351625,4.044,33.76498732,61.86911734000001,4.365895340999999,2,0.735,1623,10.557530013215313,6.226536669287466,14.013331378205153,9.668231819001111,14.670617136513432,1.397234301158225,7.392031567514591
South America,Brazil,-14.235,-51.92530000000001,12490362,310550,0.024863170498981534,4395068,0.21800000000000003,2.2,21.64,67.779,14103.452,9.467500000000001,10.2553,212559409,25.04,21.00919373,69.73919823,9.251608036,3.4,0.765,6621,16.340467864868305,12.64610019798745,15.29599356110914,9.55417486909711,19.174732079020547,3.2204745462318978,8.798001694924846
Asia,Brunei,4.5353,114.7277,206,3,0.014563106796116505,14778889,0.015,2.7,25.279999999999998,94.576,71809.251,4.7481,8.4938,437483,81.34700000000001,21.56983829,75.66632272,2.5188097289999996,0.2,0.8380000000000001,12045,5.327876168789581,1.0986122886681098,16.508710301511492,11.181768590747781,12.98879312688199,4.39872395529605,9.396404915048972
Europe,Bulgaria,42.733900000000006,25.485799999999998,327770,12650,0.038594136132043814,2023997,0.232,7.454,40.33,86.979,18563.307,8.095600000000001,11.986,6948445,65.17999999999999,14.685378919999998,64.06165381000001,21.25296727,1.5,0.8160000000000001,9273,12.700067421884691,9.445412494155667,14.520584827174956,9.828942169347531,15.754028451500027,4.177152673409416,9.134862230800225
Africa,Burkina Faso,12.238299999999997,-1.5615999999999999,12673,145,0.011441647597254004,423635,0.07800000000000001,0.4,0.8500000000000001,11.877,1703.1019999999999,6.9151,9.9915,20903278,70.151,44.67782154999999,52.91489091,2.407287537,43.7,0.452,144,9.447229025082065,4.976733742420574,12.956627514414157,7.440206573173265,16.855416546741864,4.2506500616143645,4.969813299576001
Africa,Burundi,-3.3731,29.9189,2657,6,0.002258185923974407,267671,0.07800000000000001,0.8,1,6.143999999999999,702.225,7.5176,8.5214,11890781,423.062,45.40064766999999,52.28725702,2.312095314999999,71.7,0.43300000000000005,299,7.884952945759814,1.791759469228055,12.497513893419907,6.554253865493062,16.291273951959727,6.0475187404096555,5.700443573390687
Asia,Cambodia,11.55,104.9167,2147,8,0.0037261294829995344,2145944,0.186,0.8,1.93,66.229,3645.07,5.9188,6.0787,16718971,90.67199999999998,31.09919594,64.18303486999999,4.717769196000001,15,0.594,6201,7.671826797878781,2.0794415416798357,14.579090106771721,8.201130848647932,16.63205462066478,4.507248599427263,8.732465848349879
Africa,Cameroon,3.848,11.5021,47669,721,0.015125133734712286,497211,0.093,1.3,2.3104999999999998,2.735,3364.926,4.6707,3.1372,26545864,50.885,42.36213102000001,54.914219069999994,2.723649908,23.8,0.5630000000000001,1081,10.772036570424822,6.580639137284949,13.116769762267769,8.121161250752325,17.09438451197276,3.929568184643895,6.985641817639208
North America,Canada,60,-95,965882,22830,0.023636427638158698,26977663,0.039,2.5,23.110000000000003,87.84700000000001,44017.59099999999,10.5728,19.327900000000003,37742157,4.037,15.84589974,66.50620337000001,17.647896890000002,0.5,0.929,21134,13.780796952524234,10.035830739523842,17.11051978527387,10.692344628458034,17.446288250484475,1.3955018418708038,9.958638397000977
Africa,Cape Verde,16.538800000000002,-23.041800000000002,17018,165,0.009695616406158186,979476,0.043000000000000003,2.1,1.87,26.664,6222.554,4.403200000000001,6.0656,555988,135.58,39.888914320000005,56.95484185999999,3.1562438129999992,32.3,0.6649999999999999,156,9.742026886409503,5.10594547390058,13.794773013769456,8.735935712388102,13.228501990265995,4.909561872002819,5.049856007249537
North America,Cayman Islands,19.3133,-81.25460000000001,7954,188,0.021040850587576945,2091666,0.054000000000000006,2.9,26.759999999999998,87.202,49903.028999999995,5.7589,11.211199999999998,65720,256.4959999999999,20.26118068,66.50620337000001,11.118208019999997,1.3,0.7959999999999999,375,8.981430225767635,5.236441962829949,14.553471435588861,10.81783698130016,11.093158572151204,5.547113069947318,5.926926025970411
Africa,Central African Republic,6.6110999999999995,20.9394,5088,64,0.012578616352201259,267671,0.10500000000000001,1,0.72,16.603,661.24,5.8218,5.0348999999999995,4829764,7.479000000000001,43.920015760000005,53.26519409000001,2.81479015,49.2,0.397,107,8.534640105019959,4.1588830833596715,12.497513893419907,6.494116860184811,15.39030816315136,2.012099093209531,4.672828834461906
Africa,Chad,15.4542,18.7322,4501,160,0.03554765607642746,267671,0.07800000000000001,0.4,0.43000000000000005,5.818,1768.1529999999998,4.4873,4.6784,16425859,11.833,46.82094474,50.68741364,2.491641622999999,38.4,0.398,87,8.412054873292933,5.075173815233827,12.497513893419907,7.477690777914891,16.61436741929316,2.470892238402422,4.465908118654584
South America,Chile,-35.67510000000001,-71.543,969913,22653,0.023355703037282724,10810199,0.095,2.11,25.91,67.779,22767.037,8.983500000000001,17.731800000000003,19116209,24.281999999999996,19.49427286,68.62418700999999,11.881540130000001,1.3,0.8510000000000001,5723,13.784961655735463,10.028047572471536,16.196000598326616,10.033069023229924,16.766047171870053,3.1897353351217834,8.652248422409102
Asia,China,35.8617,104.19545,101663,4841,0.04761811081711144,8229683,0.092,4.34,19.8,64.20400000000001,15308.712000000001,5.1512,9.0721,1439323774,147.67399999999998,17.80450834,70.72329863,11.47219302,0.7,0.761,62900,11.52941870069729,8.484876589939695,15.923258054292962,9.636177357091867,21.087439238848166,4.995007141543488,11.049301442688533
South America,Colombia,4.5709,-74.2973,2375591,62790,0.026431317512147504,12401610,0.16,1.71,21.85,65.386,13254.949,7.2263,17.485699999999994,50882884,44.223000000000006,22.62078466,68.61338532999999,8.765830007000002,4.5,0.767,3904,14.68075680660008,11.047551104108155,16.333336860856626,9.492126271111047,17.74503715777969,3.789245015733251,8.269756947532983
Africa,Comoros,-11.6455,43.3333,3690,146,0.03956639566395664,267671,0.07800000000000001,2.2,2.72,15.574,1413.8899999999999,7.384399999999999,3.3649999999999998,869595,437.35200000000003,39.28587378,57.658722790000006,3.0554034269999994,18.1,0.554,36,8.213381737034572,4.983606621708336,12.497513893419907,7.254100049936812,13.675782865002597,6.080738362851863,3.58351893845611
Africa,Congo,-0.228,15.8277,9681,135,0.013944840409048653,497211,0.07300000000000001,2,1.6500000000000001,47.964,4881.406,2.9303,3.3985,5518092,15.405000000000001,39.888914320000005,56.95484185999999,3.1562438129999992,37,0.5740000000000001,156,9.177920480720072,4.90527477843843,13.116769762267769,8.493188572104206,15.523542706327882,2.7346921320486315,5.049856007249537
North America,Costa Rica,9.748899999999997,-83.7534,215178,2931,0.013621280985974402,649297,0.089,1.1300000000000001,28.939999999999998,83.84100000000001,15524.994999999999,7.328799999999999,26.9071,5094114,96.079,21.078635799999997,69.04092888000001,9.880435323000002,1.3,0.81,3017,12.279220871560604,7.983098940710892,13.383645518125515,9.650206584740436,15.443596313540857,4.565170769724226,8.012018239159062
Africa,Cote d'Ivoire,7.54,-5.5470999999999995,42861,232,0.005412846177177387,497211,0.135,0.9,1.87,19.351000000000003,3601.006,4.403200000000001,6.0656,26378275,76.399,41.71470319,55.412177469999996,2.873119343,28.2,0.538,1072,10.665717600533268,5.44673737166631,13.116769762267769,8.18896852985132,17.088051312668085,4.335969607081577,6.977281341630747
Europe,Croatia,45.1,15.2,265901,5872,0.022083406982297923,1503437,0.15800000000000003,5.54,30,97.164,22669.797000000002,6.7891,12.4076,4105268,73.726,14.56222109,64.57764368000002,20.860135229999997,0.7,0.8510000000000001,16645,12.490879338036375,8.677950570294351,14.223264378304664,10.028788788895977,15.22778158497391,4.300355518529324,9.719865150009126
North America,Cuba,21.521757,-77.78116700000001,71584,414,0.005783415288332588,2843469,0.04,5.2,84.22,85.198,7423.808,11.711299999999998,15.875000000000002,11326616,110.408,16.042349909999995,68.39269093,15.564959159999999,8.7,0.7829999999999999,4684,11.178626864289857,6.025865973825314,14.86053534361224,8.912447412062642,16.242665912310404,4.704182594985739,8.451907724717607
Europe,Cyprus,35.126400000000004,33.4299,44305,250,0.005642703983749013,3342269,0.008,3.4,19.51,97.164,32415.131999999998,6.6846,7.5817000000000005,875899,127.657,16.70708967,69.24464468000004,14.048265649999998,0.7,0.887,3939,10.698852816481402,5.521460917862246,15.022160475622389,10.386380629789606,13.683006066467689,4.849346979630117,8.278682162970906
Europe,Czechia,49.817499999999995,15.473,1511021,25778,0.017059987915455842,2500123,0.052000000000000005,6.63,41.21,97.164,32605.906000000003,7.231300000000001,15.1796,10708982,137.176,15.13545128,64.70807550999999,19.991807780000002,0.7,0.9,10611,14.22829613923904,10.157276693964725,14.73185048862815,10.392248716590457,16.186593386552392,4.92126477287655,9.269646477873591
Africa,Democratic Republic of Congo,-4.0383000000000004,21.758699999999997,27887,734,0.02632050776347402,471022,0.23,0.7,0.8400000000000001,4.472,808.133,4.941200000000001,5.1353,89561404,35.879,43.84380656999999,53.53565232000001,2.620541103,77.1,0.48000000000000004,1364,10.235915909400319,6.598509028614515,13.06266008103723,6.694726648935746,18.31043502621331,3.580152166122156,7.218176838403408
Europe,Denmark,56.26390000000001,9.5018,227741,2414,0.010599760253972714,20588227,0.005,2.5,40.1,97.164,46682.515,10.108299999999998,16.6023,5792203,136.52,16.400958720000006,63.63378215,19.965259129999996,0.2,0.9400000000000001,12749,12.335964297327116,7.789040401657477,16.840229965534295,10.751124962412735,15.572023260776051,4.916471124038506,9.453208116138121
Africa,Djibouti,11.8251,42.590300000000006,7249,66,0.009104704097116844,267671,0.07300000000000001,1.4,2.24,15.950000000000001,2705.406,3.3164999999999996,4.0695,988002,41.285000000000004,29.204979660000003,66.18595669999999,4.609063643000001,22.5,0.524,63,8.888618807300878,4.189654742026425,12.497513893419907,7.903007272439283,13.803440001019453,3.720499237869392,4.143134726391533
North America,Dominica,15.415000000000001,-61.370999999999995,161,566,0.02553362867498993,802126,0.132,3.8,11.19,87.202,9673.366999999998,5.8769,7.2704,71991,98.56700000000001,26.85844526,65.42821497000001,8.469582569000004,3.2,0.742,63,5.081404364984463,6.338594078203183,13.595020981740523,9.177131718122386,11.184296390185041,4.590736519990488,4.143134726391533
North America,Dominican Republic,18.735699999999998,-70.16269999999999,251582,3302,0.013124945345851452,1284835,0.137,1.6,15.27,55.182,14600.860999999999,6.1364,15.598199999999999,10847904,222.873,27.708693899999997,64.99291644000002,7.298389658,1.6,0.756,6569,12.435524259118797,8.102283624480073,14.066140863397612,9.588835778560352,16.199482439565635,5.406602102503109,8.790116892892472
South America,Ecuador,-1.8312,-78.18339999999999,322699,16679,0.05168593642992386,1063430,0.33599999999999997,1.5,20.37,80.63499999999999,10581.936,8.2574,11.9228,17643060,66.93900000000001,27.706968170000003,64.92083246,7.3721993669999994,3.6,0.759,2535,12.684475279181827,9.721905722077173,13.877010091051845,9.266903675439739,16.6858530628866,4.203781756920476,7.837948916025283
Africa,Egypt,26.820553,30.802498,199364,11845,0.05941393631748962,2279472,0.12400000000000001,1.6,4.52,89.827,10550.206,5.2876,5.4199,102334403,97.99900000000001,28.968325049999997,65.61641934000001,6.552777882,1.3,0.707,11196,12.202887578585399,9.379661116592885,14.63945439516471,9.263900664779932,18.44375646959746,4.584957274536877,9.323311850635344
North America,El Salvador,13.794199999999998,-88.8965,63766,1998,0.0313333124235486,802126,0.09,1.3,15.66,90.64999999999999,7292.458,7.2276,19.2442,6486201,307.811,26.85844526,64.67197216999998,8.469582569000004,2.2,0.6729999999999999,1677,11.062975411922519,7.599901959208498,13.595020981740523,8.894595942383502,15.685187555193462,5.7294859582580875,7.424761761823209
Africa,Equatorial Guinea,1.6508,10.2679,6902,102,0.014778325123152709,1218744,0.043000000000000003,2.1,4.02,24.64,22604.873,3.1071000000000004,2.9434,1402985,45.194,36.95679748999999,60.6186937,2.424508808,1.1,0.592,1623,8.839566503657949,4.624972813284271,14.013331378205153,10.025920781486867,14.154112667651821,3.810964334664174,7.392031567514591
Africa,Eritrea,15.179400000000001,39.782300000000006,3208,9,0.002805486284289277,267671,0.10500000000000001,0.7,0.63,7.876,1510.459,2.8699999999999997,2.6767,3546427,44.303999999999995,40.99835370000001,55.96138756999999,2.947736623,49.2,0.459,142,8.073402968986406,2.1972245773362196,12.497513893419907,7.3201688571283166,15.081451175738387,3.791074966428606,4.955827057601261
Europe,Estonia,58.59530000000001,25.0136,102738,860,0.008370807296229243,1116763,0.20800000000000002,4.6899999999999995,44.83,89.44300000000001,29481.252,6.4294,12.224899999999998,1326539,31.033,16.463269279999995,63.544922940000006,19.991807780000002,0.5,0.892,3234,11.539937337217026,6.756932389247553,13.92594488006893,10.291509814872299,14.098083852806218,3.4350511544186646,8.081475040137052
Africa,Eswatini,-26.522499999999997,31.465899999999998,17318,666,0.038457096662432154,497211,0.043000000000000003,2.1,3.29,24.097,7738.9749999999995,6.930400000000001,10.020199999999999,1160164,79.492,37.83143024,58.153780499999996,4.014789265999998,6,0.611,1499,9.759501702007746,6.501289670540389,13.116769762267769,8.954024528873719,13.96407193239978,4.375656387666038,7.312553498102598
Africa,Ethiopia,9.145,40.4897,198794,2784,0.01400444681429017,2279472,0.23,0.3,0.77,7.96,1729.9270000000001,3.5025999999999997,4.7883000000000004,114963583,104.95700000000001,40.336441179999994,56.14686837,3.5166904549999995,26.7,0.48500000000000004,849,12.200024391662634,7.931644021454311,14.63945439516471,7.455834490069734,18.560125966611913,4.653550742470224,6.744059186311348
Europe,Faeroe Islands,61.8926,-6.9118,10838,115,0.012422360248447204,2843469,0.036,4.51,33.33,86.979,29481.252,6.7425,13.268899999999999,48865,35.308,15.13545128,64.70613601,20.15841271,0.5,0.882,3042,9.29081375612606,4.74493212836325,14.86053534361224,10.291509814872299,10.796816672772936,3.5641095671579865,8.020270472819238
Oceania,Fiji,-17.7134,178.065,67,2,0.029850746268656716,36597,0,2.3,8.6,79.807,8702.974999999999,3.5007,7.161899999999999,896444,49.562000000000005,29.293681799999998,65.08208859999999,5.624229594,1.4,0.743,870,4.204692619390966,0.6931471805599453,10.507721548816848,9.071420200212712,13.706191104934076,3.9032244110717964,6.76849321164863
Europe,Finland,61.924110000000006,25.748151,75545,817,0.010814746177774837,3843816,0.038,3.2800000000000002,38.120000000000005,97.164,40585.72099999999,9.2069,13.0394,5540718,18.136000000000003,16.01634155,61.843013830000004,22.14064462,0.2,0.9380000000000001,3224,11.232483784173942,6.705639094860003,15.161976181121258,10.611171584221658,15.527634653213825,2.897898913205228,8.07837810362652
Europe,France,46.2276,2.2137000000000002,4569164,94623,0.020709039990685386,48108527,0.08,5.98,32.67,97.164,38605.670999999995,11.3129,15.4681,68147687,122.57799999999999,17.80215787,61.806471849999994,20.39137028,0.7,0.901,89322,15.334840813969956,11.457655854452971,17.68896999587164,10.561154461760108,18.037187775692257,4.808747562049134,11.400003097105111
Africa,Gabon,-0.8037000000000001,11.6094,18777,111,0.005911487458060393,1218744,0.043000000000000003,6.3,6.819999999999999,44.6,16562.413,2.7807000000000004,9.7151,2225728,7.859,37.179545600000004,59.27572714000001,3.544727257000001,3.4,0.703,1623,9.840387995592812,4.709530201312334,14.013331378205153,9.714891129884593,14.615594611078407,2.061659371884038,7.392031567514591
Africa,Gambia,13.4432,-15.3101,5365,163,0.03038210624417521,52362,0.10700000000000001,1.1,1.02,7.876,1561.767,3.2821000000000002,3.0606,2416664,207.566,40.99835370000001,56.11429871,2.947736623,10.1,0.496,552,8.587651655064798,5.093750200806762,10.865936416391367,7.353573151539344,14.697898634713864,5.335449361385643,6.313548046277095
Asia,Georgia,42.3154,43.356899999999996,279936,3746,0.013381630086877,2145944,0.03,2.6,71.2,71.17999999999999,9745.079,7.6017,9.519,3989175,65.032,20.031425420000005,64.90751896000002,15.06105563,4.2,0.812,4757,12.542316284596385,8.228443883004033,14.579090106771721,9.184517718630197,15.199095000569526,4.1748794564442715,8.467372496432281
Europe,Germany,51.165691,10.451526000000001,2782925,75915,0.027278852286712722,48910097,0.079,8,42.49,97.164,45229.244999999995,11.246799999999999,19.8808,83783945,237.016,13.799488479999999,64.63751920000001,21.56299232,0.2,0.9470000000000001,38881,14.839013090809638,11.237369572316288,17.705494415748085,10.719499169871812,18.243751959984984,5.46812764940492,10.568260978408226
Africa,Ghana,7.9465,-1.0231999999999999,90287,740,0.008196085815233643,979476,0.093,0.9,1.36,41.047,4227.63,3.2624,6.0656,31072945,126.71900000000001,37.36487213,59.53780569,3.097322178,12,0.611,897,11.410748764478615,6.606650186198215,13.794773013769456,8.349396831334822,17.251848062844495,4.841972036620837,6.799055862058796
Europe,Gibraltar,36.1408,-5.3536,10838,115,0.012422360248447204,2843469,0.036,4.51,33.33,86.979,48472.545,10.108299999999998,15.7394,33691,3457.1,16.400958720000006,64.51118404000002,19.60531972,0.2,0.9440000000000001,12749,9.29081375612606,4.74493212836325,14.86053534361224,10.788752834166171,10.424986018358423,8.14818536631841,9.453208116138121
Europe,Greece,39.0742,21.8243,252590,7826,0.030983015954709214,6307247,0.057,4.21,54.790000000000006,97.164,24574.382,8.0414,10.2267,10423056,83.479,13.896598590000002,64.16193128,21.94147013,1.5,0.888,30123,12.439522899833023,8.965206802770357,15.65720984771389,10.109459797191533,16.159530833440403,4.424595103220146,10.313044278547546
North America,Grenada,12.1165,-61.679,155,1,0.0064516129032258064,802126,0.132,3.7,14.07,83.84100000000001,13593.876999999999,4.757099999999999,8.9967,112519,317.132,23.717221860000002,66.60535878999998,9.677419355000001,2.2,0.779,185,5.043425116919247,0,13.595020981740523,9.51737474975619,11.630877375255379,5.759318090990773,5.220355825078324
North America,Guatemala,15.7835,-90.2308,193050,6794,0.03519295519295519,1029304,0.132,0.6,3.55,76.66499999999999,7423.808,5.8138,17.2122,17915567,157.834,33.85933214000001,61.211683529999995,4.928984330999999,8.7,0.6629999999999999,1781,12.170704501692382,8.82379514872053,13.84439340364331,8.912447412062642,16.70118055767612,5.061543847813939,7.484930283289661
Africa,Guinea,9.9456,-9.6966,19501,116,0.005948412901902467,267671,0.10500000000000001,0.3,0.8300000000000001,17.45,1998.9260000000002,4.123099999999999,4.1133999999999995,13132792,51.755,43.44998914,53.60810527000001,2.9419055899999997,35.3,0.47700000000000004,99,9.87822102528824,4.7535901911063645,12.497513893419907,7.600365315305943,16.390622866476445,3.9465210458357136,4.59511985013459
Africa,Guinea-Bissau,11.803700000000001,-15.1804,3630,61,0.01680440771349862,267671,0.10500000000000001,0.8,1.27,6.4030000000000005,1548.675,7.2359,3.0088,1967998,66.191,42.15366371,54.983075840000005,2.863260455,67.1,0.48000000000000004,45,8.196987927258897,4.110873864173311,12.497513893419907,7.345155005620647,14.492527340333657,4.192544502039066,3.8066624897703196
South America,Guyana,4.860415999999999,-58.93018,10072,225,0.022339158061953933,1063430,0.21100000000000002,1.6,8.02,77.15899999999999,7435.047,4.9455,8.5423,786559,3.9519999999999995,27.929930529999996,65.35848516999998,6.711584305,3.6,0.6819999999999999,287,9.217514575724183,5.41610040220442,13.877010091051845,8.913960180326864,13.575423014560116,1.3742217798856213,5.659482215759621
North America,Haiti,18.9712,-72.2852,12736,251,0.019707914572864322,802126,0.132,0.7,2.34,22.863,1653.1729999999998,8.0355,5.239000000000001,11402533,398.448,32.85858739999999,62.077743049999995,5.063669546,23.5,0.51,447,9.452187908084165,5.5254529391317835,13.595020981740523,7.410451750541954,16.249346081665976,5.9875770003807895,6.102558594613569
North America,Honduras,15.2,-86.24190000000002,187015,4557,0.02436702938266984,802126,0.132,0.7,3.09,84.169,4541.795,7.8584,11.7122,9904608,82.80499999999999,31.15942483,64.01238565,4.828189523999999,16,0.634,851,12.138944106523503,8.424419791263883,13.595020981740523,8.42107758734485,16.108510661359908,4.416488446041454,6.7464121285733745
Asia,Hong Kong,22.3,114.2,227178,1279,0.003643000184635487,8307697,0.009,2,25.279999999999998,95.803,56054.92,4.7481,8.9203,7496988,7039.714,18.71869615,75.66632272,2.763838983,0.2,0.9490000000000001,14673,12.333489130154796,7.153833801578843,15.932692992441613,10.934087203416931,15.830011897843661,8.85932282332687,9.593764349207467
Europe,Hungary,47.16250000000001,19.5033,624779,19752,0.031614378844359366,3992774,0.267,7.02,34.08,97.164,26777.561,6.88,10.077,9660350,108.043,14.43321973,65.87232266999999,19.694457610000004,0.5,0.8540000000000001,17552,13.345153266187317,9.891010031025015,15.199996785395237,10.19531953966812,16.0835404374164,4.682529296032426,9.772923182515012
Europe,Iceland,64.96310000000001,-19.0208,6163,29,0.004705500567905241,297181,0.007,2.9099999999999997,40.78,97.164,46482.958000000006,8.3263,15.7394,341250,3.404,19.647170910000003,65.16070801999999,15.192121069999999,0.2,0.9490000000000001,2344,8.726318950962243,3.367295829986474,12.602096659768671,10.746841029776224,12.740370625481306,1.2249512107111278,7.759614150696903
Asia,India,20.593684,78.96288,11971624,161552,0.01349457684270739,238604638,0.046,0.53,8.57,59.55,6426.674,3.5349999999999997,3.3749999999999996,1380004385,450.419,26.618264650000004,67.00381119,6.377924155999999,21.2,0.645,17423,16.298049740846093,11.992582351244103,19.290318505829777,8.768212420574613,21.04535251364671,6.110178260660419,9.765546451422905
Asia,Indonesia,-0.7892999999999999,113.9213,1492002,40364,0.02705358303809244,8229683,0.12000000000000001,1.04,4.2700000000000005,64.20400000000001,11188.744000000002,2.9891,8.728499999999999,273523621,145.725,26.21511948,67.73457784,6.050302682000001,5.7,0.718,15810,14.215629400227519,10.60569357758442,15.923258054292962,9.322663551932072,19.426898541727727,4.981721283931614,9.668397930203518
Asia,Iran,32.427908,53.688046,1846923,62308,0.03373611135927161,11844528,0.128,1.5,18.49,90.66999999999999,19082.62,4.1666,7.8694,83992953,49.830999999999996,24.290822869999996,66.9828933,7.652343941,0.2,0.7829999999999999,8789,14.429031569086586,11.039845107446496,16.28737654674392,9.856533252137066,18.24624346043124,3.9086372803239375,9.081256218564645
Asia,Iraq,33.22319100000001,43.679291,827157,14177,0.017139430603863595,7793654,0.14300000000000002,1.4,7.08,94.576,15663.985999999999,4.1666,4.983600000000001,40222503,88.12499999999999,38.02092726,58.58053961,3.3985331339999996,2.5,0.6739999999999999,892,13.625749798793283,9.559376212117632,15.868820370772474,9.65911947100074,17.509937173092446,4.478756261132433,6.79346613258001
Europe,Ireland,53.1424,-7.692099999999999,233937,4653,0.019889970376639865,3896983,0.036,2.96,33.13,97.164,67335.29299999999,7.184399999999999,20.0431,4937796,69.874,21.150374960000004,64.62679428999999,14.22283075,0.2,0.9550000000000001,10926,12.362807127321497,8.445267451844648,15.175713221981335,11.117439791252115,15.412429635761711,4.2466936201027305,9.298900548955663
Europe,Isle of Man,54.23610000000001,-4.5481,10838,115,0.012422360248447204,2843469,0.036,4.51,33.33,86.979,11803.431,8.095600000000001,12.8232,85032,147.872,16.39360314,68.10508936999999,15.38917207,1,0.7949999999999999,1711,9.29081375612606,4.74493212836325,14.86053534361224,9.376145530902335,11.350782935213418,4.996347034687856,7.444833273892193
Asia,Israel,31.046051000000002,34.851611999999996,831383,6165,0.0074153548966000024,14778889,0.015,2.9899999999999998,46.25,94.576,33132.32,7.4075,11.9277,8655541,402.606,27.88557191,59.90575367,12.208674409999999,0.5,0.919,4121,13.630845858153567,8.726643415598444,16.508710301511492,10.408264520007865,15.973710251860211,5.997958416224297,8.323851131338817
Europe,Italy,41.871939999999995,12.56738,3512453,107636,0.03064411110981414,48108527,0.07100000000000001,3.18,39.77,97.164,35220.084,8.8403,13.4217,60461828,205.859,13.166657510000002,63.821205840000005,23.01213665,2,0.892,61567,15.071825211751696,11.586510443243633,17.68896999587164,10.46937176705587,17.91752278172455,5.327191468416354,11.02788129168973
North America,Jamaica,18.1096,-77.29750000000001,37747,566,0.014994569104829523,270017,0.24600000000000002,1.7,13.06,66.425,8193.571,5.9884,13.315600000000002,2961161,266.879,23.5312194,67.54638892999999,8.922391673,3.2,0.734,2473,10.538661281320572,6.338594078203183,12.506240198961391,9.01110510135424,14.901091979128001,5.586795372160964,7.813187267521416
Asia,Japan,36.204823999999995,138.252924,466563,9021,0.019335009419949718,8979084,0.03,13.05,24.12,94.576,39002.22299999999,10.9359,23.6443,126476458,347.77799999999996,12.57303102,59.424919700000004,28.002049279999994,0.2,0.919,31192,13.053148338382856,9.107310471656639,16.010408430621233,10.571373923487345,18.655566746045782,5.851564345175411,10.347916930662434
Europe,Jersey,23.7,12.453400000000002,2254,56,0.012422360248447204,186726,0.04,2.397,33.33,85.198,48472.545,9.761,15.3043,101073,508.54400000000004,16.400958720000006,64.51118404000002,19.60531972,0.2,0.9440000000000001,12749,7.720461694599722,4.02535169073515,12.1373975806802,10.788752834166171,11.523598307026532,6.231551740752079,9.453208116138121
Asia,Jordan,31.24,36.51,582133,6472,0.011117734263475872,5664285,0.191,1.4,23.24,71.17999999999999,8337.49,8.119299999999999,12.392000000000001,10203140,109.285,33.56224213000001,62.54434156999999,3.893416292,0.1,0.729,4150,13.274454222943092,8.775240458738327,15.549691230886404,9.02851749082286,16.138206074017777,4.693959148802151,8.330863613224745
Asia,Kazakhstan,48.0196,66.9237,290792,3220,0.011073206965803736,8457728,0.038,6.7,39.8,98.99900000000001,24055.588000000003,3.1254,7.8694,18776707,6.681,28.881249939999996,63.46640612,7.652343941,0.1,0.8250000000000001,8789,12.580363513946716,8.077136638538454,15.950591137594648,10.088122597817344,16.74812767025658,1.8992676769433403,9.081256218564645
Africa,Kenya,-0.0236,37.9062,129330,2104,0.01626846052733318,924770,0.07300000000000001,1.4,1.57,24.651000000000003,2993.028,4.802499999999999,7.9821,53771300,87.324,39.193374260000006,58.38279903,2.42382671,36.8,0.601,1364,11.77012255640929,7.651595573857601,13.737300336927714,8.004040862970985,17.800250425544,4.46962533915295,7.218176838403408
Europe,Kosovo,16.538800000000002,9.537499,84172,1811,0.021515468326759494,764199,0.29900000000000004,4.28,28.74,94.043,9795.834,6.9953,12.8232,1932774,168.155,15.889691070000001,68.39780528000001,14.20263062,0.6,0.7799999999999999,1711,11.340617603358513,7.501634457883413,13.54658350543611,9.189712472236359,14.4744668346454,5.124886173099529,7.444833273892193
Asia,Kuwait,29.311660000000003,47.48176599999999,227178,1279,0.005629946561726927,2005458,0.14700000000000002,2,26.459999999999997,94.576,65530.537,5.2914,8.9203,4270563,232.12800000000001,21.56983829,75.66632272,2.763838983,0.2,0.806,8508,12.333489130154796,7.153833801578843,14.511383021564573,11.090271526719942,15.26725622663044,5.447288943660437,9.048762176320128
Asia,Kyrgyzstan,41.20438,74.766098,87946,1495,0.01699906760966957,2145944,0.186,4.5,22.130000000000003,89.22,3393.474,6.185899999999999,6.1876,6524191,32.333,31.09919594,64.18303486999999,4.595215725,1.4,0.697,423,11.384478268744857,7.3098814858247865,14.579090106771721,8.129609454408259,15.691027518811966,3.4760883805037817,6.0473721790462776
Asia,Laos,19.856270000000002,102.495496,49,1495,0.011117734263475872,2145944,0.186,1.5,23.24,49.839,6397.360000000001,6.4144,7.900600000000001,7275556,29.715,25.34019489,66.60697096999999,6.092974372999999,22.7,0.613,1652,3.8918202981106265,7.3098814858247865,14.579090106771721,8.763640684246235,15.800030794218342,3.391651968818624,7.409741954080923
Europe,Latvia,56.879599999999996,24.6032,100716,1872,0.018586917669486478,1763959,0.039,5.57,31.91,97.164,25063.846,5.9557,9.0019,1886202,31.212,16.30775621,63.355732790000005,20.336511,0.7,0.8660000000000001,1946,11.520059953870827,7.534762657037537,14.383071272648374,10.129181688342484,14.450075841424304,3.440802636254515,7.57353126274595
Asia,Lebanon,33.854699999999994,35.862300000000005,458338,6058,0.01321731996910577,2145944,0.03,2.9,21.04,94.043,13367.564999999999,8.195500000000001,13.5022,6825442,594.5609999999999,25.572219839999995,67.15448852999998,7.273291633000001,1.8,0.744,1964,13.035362182181046,8.709134991587183,14.579090106771721,9.500586529350807,15.736167658843097,6.387823318100043,7.582738488914411
Africa,Lesotho,-29.610000000000003,28.2336,10686,315,0.029477821448624368,267671,0.07300000000000001,0.7,0.69,2.117,2851.1530000000002,8.7632,11.8211,2142252,73.562,32.466917110000004,62.607257059999995,4.9258258249999995,59.6,0.527,1173,9.276689752517717,5.752572638825633,12.497513893419907,7.955478752853305,14.577368170128782,4.29812858805602,7.067319848653476
Africa,Liberia,6.428055,-9.429499000000002,2042,85,0.0416258570029383,214525,0.10500000000000001,0.8,0.38,1.1880000000000002,752.7880000000001,8.1553,4.2040999999999995,5057677,49.127,40.75291845,55.96138756999999,3.285693974,38.6,0.48000000000000004,107,7.621684998724611,4.442651256490317,12.276181560675322,6.623783647655277,15.436417844940062,3.8944087818288886,4.672828834461906
Africa,Libya,26.3351,17.228330999999997,156116,2602,0.01666709369955674,1218744,0.043000000000000003,3.7,20.91,44.6,17881.509,3.5854,4.334099999999999,6871287,3.623,28.068276989999998,67.47348414,4.4582388779999995,2,0.724,1623,11.958354599649384,7.86403565907245,14.013331378205153,9.79152244113952,15.74286198289783,1.2873024119129401,7.392031567514591
Europe,Liechtenstein,47.14,9.55,2649,56,0.021140052850132124,2843469,0.036,2.397,33.33,86.979,32415.131999999998,7.231300000000001,13.6175,38137,237.012,15.13545128,64.70613601,20.15841271,0.7,0.919,85,7.88193748927207,4.02535169073515,14.86053534361224,10.386380629789606,10.548940218483393,5.468110772764721,4.442651256490317
Europe,Lithuania,55.1694,23.8813,213447,3539,0.01658022834708382,2283127,0.064,6.56,63.53,97.164,29524.265000000003,6.4576,12.7744,2722291,45.135000000000005,15.13545128,64.70613601,20.15841271,0.7,0.882,2825,12.271143837273565,8.171599480345463,14.641056552523635,10.292967746598205,14.816984363165696,3.8096579987501182,7.946263643580541
Europe,Luxembourg,49.8153,6.1296,60465,738,0.012205408087323245,2342279,0.023,4.51,30.09,97.164,94277.965,5.4811000000000005,10.7956,625976,231.447,15.70723484,70.01781628000002,14.274948879999998,0.2,0.916,1018,11.009819964219377,6.6039438246004725,14.666634944994126,11.454002772175622,13.347067310689143,5.4443509056304755,6.925595197110468
Asia,Macao,22.1667,113.55,177135,284,0.0032599890965835225,3483259,0.048,2,24.85,95.803,104861.85100000001,4.4404,8.4938,649342,20546.766000000003,14.712611769999999,78.76249412,2.5188097289999996,0.2,0.89,12045,12.084667432703492,5.648974238161206,15.06347890776637,11.5603990580783,13.383714821450024,9.930458835277292,9.396404915048972
Africa,Madagascar,-18.766947,46.869107,23424,381,0.016265368852459015,134665,0.17200000000000001,0.2,1.81,50.54,1416.44,5.502,15.021299999999998,27691019,43.95099999999999,40.36683998,56.58909589,3.044064128,77.6,0.528,291,10.061516416761037,5.942799375126701,11.810545491960967,7.255901960448988,17.136618694758944,3.7830753770008925,5.673323267171493
Africa,Malawi,-13.254299999999999,34.3015,33458,1113,0.03326558670572061,214525,0.07800000000000001,1.3,0.36,8.703999999999999,1095.042,9.648199999999997,9.775500000000001,19129955,197.51899999999998,43.46868847,53.88928734999999,2.642024179,71.4,0.48300000000000004,871,10.418046199891226,7.014814351275545,12.276181560675322,6.998547997679406,16.766765989087478,5.285834782245655,6.769641976852503
Asia,Malaysia,4.210483999999999,101.975766,340642,1251,0.003672477263520059,7372592,0.028,1.9,15.360000000000001,94.576,26808.164,3.8593999999999995,8.9278,32365998,96.254,23.694979150000005,69.38424954000001,6.920771309,0.1,0.81,25832,12.73858735141115,7.1316985104669115,15.813279898400085,10.196461746975277,17.292618985265726,4.566990530745924,10.15936931243811
Asia,Maldives,3.2028,73.2207,23403,66,0.0028201512626586335,621663,0.028999999999999998,3.6,45.63,95.803,15183.616,9.03,21.7775,540542,1454.433,19.90967185,76.44932791000001,3.641000239,0.7,0.74,1484,10.060619498256424,4.189654742026425,13.340153424251225,9.627972230751203,13.200327618870396,7.282371412934783,7.302496423727326
Africa,Mali,17.570691999999998,-3.9961659999999997,9773,376,0.038473344929908934,440609,0.07300000000000001,0.1,1.29,52.232000000000006,2014.306,3.794,5.785200000000001,20250834,15.196,47.30469699999999,50.20017519000001,2.4951278180000003,38,0.43400000000000005,14,9.187378760338836,5.929589143389895,12.995913139832634,7.608029998182221,16.823706535853923,2.7210322353253793,2.6390573296152584
Europe,Malta,35.9375,14.375400000000003,28808,385,0.013364343237989447,795647,0.047,4.485,28.6,97.164,36513.323,9.341,16.4762,441539,1454.037,14.32879475,64.85403249999999,20.817172750000005,0.2,0.895,2599,10.268408405328712,5.953243334287785,13.586910899129116,10.50543248666792,12.998021630345663,7.282099104812335,7.8628820346414905
Oceania,Marshall Islands,7.1315,171.18449999999999,4,34,0.015384615384615385,233820,0.001,2.7,4.23,82.502,3819.2019999999998,16.4029,9.487400000000001,59194,295.15000000000003,37.864097369999996,57.673351520000004,3.6308099299999994,13.2,0.704,7,1.3862943611198906,3.5263605246161616,12.36230686756081,8.247796779254307,10.98857546438435,5.687483701686698,1.9459101490553132
Africa,Mauritania,21.007900000000003,-10.9408,17756,448,0.02523090786213111,233820,0.024,1.4,1.87,15.950000000000001,3597.6330000000003,4.403200000000001,6.0656,4649660,4.289000000000001,39.888914320000005,56.95484185999999,3.1562438129999992,6,0.546,156,9.784478765953926,6.104793232414985,12.36230686756081,8.188031408196283,15.352304656610697,1.4560536055347435,5.049856007249537
Africa,Mauritius,-20.348404,57.55215200000001,871,10,0.011481056257175661,1102728,0.043000000000000003,3.4,25.330000000000002,44.6,20292.745000000003,5.7187,9.9685,1271767,622.9619999999999,17.25970884,70.74156394000003,11.99872723,0.5,0.804,1399,6.769641976852503,2.302585092994046,13.91329766764349,9.91801871198859,14.055917830002784,6.43448552174258,7.243512974665482
North America,Mexico,23.634500000000003,-102.55279999999999,2224904,201429,0.09053379381762089,5540712,0.233,1.3800000000000001,23.830000000000002,87.84700000000001,17336.469,5.5165,11.048599999999999,128932753,66.44400000000002,26.18511815,66.39822125,7.416660604000001,2.5,0.779,41313,14.615224326584244,12.21319224095635,15.527633570321093,9.760567596380481,18.674801531831047,4.196359487628831,10.628932499395235
Oceania,Micronesia (country),7.4256,150.5508,1,34,0.015384615384615385,233820,0.001,2.61,1.94,35.89,3299.464,4.684899999999999,9.155000000000001,115021,150.777,37.864097369999996,57.673351520000004,3.6308099299999994,16,0.62,116,0,3.5263605246161616,12.36230686756081,8.101515310019902,11.6528699993701,5.015801924047614,4.7535901911063645
Europe,Moldova,47.41159999999999,28.3699,225660,4785,0.021204466897101835,764199,0.29900000000000004,5.8,28.74,86.979,5189.972,6.9953,12.8232,4033963,123.65499999999999,15.889691070000001,72.09718982000001,12.01311911,0.2,0.75,1711,12.326784720692437,8.473241303887054,13.54658350543611,8.554483581155015,15.210259825416552,4.817495429866422,7.444833273892193
Europe,Monaco,43.73330000000001,7.4167000000000005,2254,28,0.012422360248447204,2342279,0.036,13.8,75.07,85.198,48472.545,1.7727,6.7499,39244,19347.5,16.400958720000006,64.51118404000002,19.60531972,0.2,0.9440000000000001,347,7.720461694599722,3.332204510175204,14.666634944994126,10.788752834166171,10.577553845283282,9.870318491144614,5.849324779946859
Asia,Mongolia,46.862500000000004,103.8467,6693,5,7.470491558344539e-4,2145944,0.017,7,28.59,71.17999999999999,11840.846,4.0023,8.152500000000002,3278292,1.98,30.79828114,65.01238541,4.1893334520000005,0.5,0.737,529,8.808817483100642,1.6094379124341003,14.579090106771721,9.379310358588077,15.002833113025169,0.6830968447064438,6.270988431858299
Europe,Montenegro,42.708678000000006,19.374390000000002,89732,1241,0.013830071769268489,2023997,0.28300000000000003,3.8609999999999998,27.56,86.979,16409.288000000004,8.095600000000001,11.986,628062,46.28,18.150216490000002,66.46061145000002,15.38917207,1,0.8290000000000001,2077,11.404582729133196,7.123672785204607,14.520584827174956,9.705602794964902,13.350394166691883,3.834709902325476,7.638679823876112
Africa,Morocco,31.7917,-7.0926,494358,8798,0.0177968193090837,5411334,0.043000000000000003,1.1,7.31,24.097,7485.013,5.2452000000000005,7.489200000000001,36910558,80.08,26.96951716,65.73002807,7.300454770999999,1,0.6859999999999999,12289,13.111015230060728,9.082279701908664,15.504006200833366,8.920658033659167,17.424008192746147,4.383026135006965,9.416459832284596
Africa,Mozambique,-18.665695,35.529562000000006,67011,762,0.011371267403859069,471022,0.114,0.7,0.8400000000000001,12.226999999999999,1136.1029999999998,4.941200000000001,4.664199999999999,31255435,37.72800000000001,44.36800049,52.75355334000001,2.878446168999999,62.9,0.456,2743,11.112612064001667,6.635946555686647,13.06266008103723,7.0353592641849945,17.257703839024355,3.6304025243549605,7.916807490937603
Asia,Myanmar,21.9162,95.956,142377,3206,0.022517681928963244,2251884,0.14700000000000002,0.9,6.7700000000000005,79.287,5591.597,4.6591,3.4939,54409794,81.721,25.914401260000002,68.07389414,6.0117046,6.4,0.583,3551,11.866233748060829,8.072779333169498,14.62727775714595,8.629020214077766,17.812054732386205,4.4033110067810615,8.174984532943087
Africa,Namibia,-22.9576,18.490399999999998,43499,508,0.011678429389181361,338019,0.12400000000000001,2.1,4.18,44.6,9541.807999999999,8.551,10.6523,2540916,3.078,36.90591013000001,59.486035449999996,3.6080544229999996,13.4,0.646,1499,10.680493228306789,6.230481447578482,12.730857385903015,9.163438264305805,14.748035203904639,1.1242800354166875,7.312553498102598
Asia,Nepal,28.1667,84.25,276750,3027,0.010937669376693767,2251884,0.036,0.3,7.49,47.782000000000004,2442.804,5.5533,4.507899999999999,29136808,204.43,29.570375600000002,64.64705679000001,5.782567617,15,0.602,1173,12.530869850570884,8.01532730902172,14.62727775714595,7.800901838812843,17.187512812580376,5.320225618596917,7.067319848653476
Europe,Netherlands,52.132600000000004,5.291300000000001,1263882,16592,0.01312780781750195,7459247,0.07600000000000001,3.32,36.05,97.164,48472.545,10.1008,15.3043,17134873,508.54400000000004,15.883496240000003,64.51118404000002,19.60531972,0.2,0.9440000000000001,18780,14.049698494900763,9.716675930469309,15.824965028747526,10.788752834166171,16.656626301533002,6.231551740752079,9.840547752762253
Oceania,New Zealand,-40.9006,174.88600000000002,2482,26,0.010475423045930701,1875086,0.001,2.61,35.9,82.502,36085.843,9.1701,19.288099999999996,4822233,18.206,19.566604079999998,64.43943975,15.99395617,13.2,0.931,3686,7.8168199657645525,3.258096538021482,14.444165083001472,10.493655906741049,15.388747656754958,2.901751210083097,8.212297138229768
North America,Nicaragua,12.865416000000003,-85.20722900000003,6629,177,0.026700859858198825,802126,0.132,0.9,9.78,84.169,5321.4439999999995,8.6455,18.6187,6624554,51.667,29.854853000000006,64.68715463000001,5.457992374,3.2,0.6599999999999999,1256,8.79920924224139,5.176149732573829,13.595020981740523,8.579499974077049,15.706293606815699,3.9448192798432284,7.135687347028144
Africa,Niger,17.607789,8.081666,4972,185,0.037208366854384556,267671,0.10500000000000001,0.3,0.43000000000000005,8.978,926,7.74,9.6507,24206636,16.955,49.84216915,47.561119430000005,2.5967114259999997,44.5,0.394,157,8.511577452630602,5.220355825078324,12.497513893419907,6.8308742346461795,17.00213736841292,2.8305627755776017,5.056245805348308
Africa,Nigeria,9.082,8.6753,162489,2041,0.012560850272941553,1727467,0.023,0.8,3.8099999999999996,41.949,5338.454,3.7555,4.6014,206139587,209.58800000000002,43.687530200000005,53.56938646,2.7430833380000004,36.8,0.539,5265,11.998365586153009,7.621195162809845,14.362166731691865,8.582691376928615,19.144064104078144,5.3451436988995376,8.568836424568076
Europe,North Macedonia,41.6086,21.745299999999997,126230,3642,0.028852095381446567,603068,0.28300000000000003,4.28,28.74,87.202,13111.214000000002,6.062099999999999,12.8232,2083380,82.6,16.39360314,69.52097449,14.085422370000002,5,0.774,707,11.745860918746907,8.200288260287554,13.309785238837225,9.48122317353842,14.549502132793599,4.414009680526933,6.561030665896573
Europe,Norway,60.472,8.4689,92469,656,0.00709426943083628,4469829,0.034999999999999996,3.6,29.16,97.164,64800.057,10.446299999999999,17.8774,5421242,14.462000000000002,17.41297454,65.31435954000001,17.27266592,0.2,0.9570000000000001,5688,11.434628732195051,6.486160788944089,15.312860710824452,11.079061761969609,15.505835498456195,2.67152451975276,8.646113971483077
Asia,Oman,21.512583,55.923255000000005,153838,1650,0.010725568455128122,8979084,0.015,1.6,20.03,97.4,37960.708999999995,3.8491,7.5657,5106622,14.98,22.41839475,75.13301545,2.448589805,0.2,0.8130000000000001,2301,11.943655379658132,7.408530566894626,16.010408430621233,10.544306930104762,15.446048686834065,2.7067159780890733,7.741099090035366
Asia,Pakistan,30.3753,69.3451,654591,14215,0.021715850049878475,9976791,0.092,0.6,9.8,59.607,5034.708,2.8985999999999996,4.303,220892331,255.57299999999998,35.05437791,60.62321438000001,4.322407708999999,4,0.557,966,13.39176589210044,9.5620530240851,16.115772053495412,8.524110809429235,19.213185950721147,5.54350808312092,6.873163834212518
Asia,Palestine,31.952199999999998,35.233200000000004,234748,2557,0.010892531565764139,2251884,0.21600000000000003,4.5,21.03,66.229,4449.898,6.185899999999999,6.0787,5101416,778.202,31.09919594,64.18303486999999,4.595215725,1,0.708,1173,12.366267877332406,7.846589975291186,14.62727775714595,8.400636453549273,15.445028706216567,6.656986130580561,7.067319848653476
North America,Panama,8.537999999999998,-80.7821,353497,6090,0.017227868977671663,2091666,0.054000000000000006,2.3,15.69,87.202,22267.037,7.3195,20.0809,4314768,55.133,26.77912011,64.90704329000002,8.313836605000002,2.2,0.8150000000000001,1785,12.775630277719811,8.714403360703942,14.553471435588861,10.01086270245485,15.277554115121433,4.00974844795399,7.487173694213739
Oceania,Papua New Guinea,-6.314992999999999,143.95555,4660,39,0.008369098712446352,1218744,0.001,2.61,0.7,35.89,3823.194,2.4693,9.155000000000001,8947027,18.22,35.48596536,61.00460922,3.5094254179999997,13.2,0.555,140,8.446770727119691,3.6635616461296463,14.013331378205153,8.248841477896741,16.0068318562965,2.9025198918318122,4.941642422609304
South America,Paraguay,-23.442499999999995,-58.443799999999996,206597,4003,0.01937588638750805,864285,0.353,1.3,13.54,79.60199999999999,8827.01,6.654599999999999,10.4787,7132530,17.144000000000002,29.17933588,64.19983942,6.620824695999999,1.7,0.728,1181,12.238525314749081,8.294799358992574,13.669657854505088,9.085571617907322,15.78017656815979,2.841648258171276,7.074116816197362
South America,Peru,-9.19,-75.01520000000001,1520973,51238,0.0336876460002906,4395068,0.21100000000000002,1.6,13.05,67.779,12236.706,4.9952000000000005,14.8979,32971846,25.129,25.25449584,66.3520253,8.39347886,3.5,0.777,4419,14.234860819604581,10.844236723242657,15.29599356110914,9.412195402200606,17.311164603774724,3.224022557687731,8.39366870513074
Asia,Philippines,12.879721,121.774017,712442,13159,0.018470275475056214,9296338,0.14700000000000002,1,6,78.46300000000001,7599.188,4.446400000000001,7.1259999999999994,109581085,351.873,30.47588107,64.20912271,5.3149962199999985,1.8,0.718,7168,13.476453784302725,9.48486121415014,16.045131117137444,8.935796678461134,18.512175335467393,5.863270315041212,8.877381954654766
Europe,Poland,51.919399999999996,19.1451,2221725,51753,0.023294062046382878,11503034,0.198,6.619999999999999,23.79,97.164,27216.445000000003,6.542,10.9431,37846605,124.027,15.18538648,66.69771627,18.116897250000005,0.7,0.88,19622,14.61379447914628,10.854237680461853,16.258121384624452,10.211576665178045,17.449051837655702,4.820499283838186,9.884406664723336
Europe,Portugal,39.3999,-8.224499999999999,820042,16827,0.020519680699281256,8920337,0.014,3.3899999999999997,51.24,97.164,27936.896,8.969600000000002,13.0133,10196707,112.371,13.25208506,64.39122422000003,22.356690720000003,0.5,0.8640000000000001,16186,13.617110837440956,9.730740018176446,16.003844284111594,10.237703531435415,16.13757538299218,4.72180589705259,9.691901950055648
Asia,Qatar,25.354800000000004,51.1839,177135,284,0.0016032969204279222,1694463,0.081,1.2,24.85,94.576,116935.6,2.6074,6.293,2881060,227.32200000000003,13.5959001,84.88093678999999,1.5231631169999997,0.2,0.8480000000000001,1819,12.084667432703492,5.648974238161206,14.342876434441187,11.669378634888721,14.873668839951852,5.426367514560198,7.506042178518122
Europe,Romania,45.9432,24.9668,932179,22997,0.02467015455186182,6549158,0.23500000000000001,6.8919999999999995,29.810000000000002,97.164,23313.198999999997,5.157899999999999,12.0533,19237682,85.12899999999999,15.57395813,65.63597607999999,18.790065790000003,5.7,0.8280000000000001,11720,13.745280135312388,10.043119051621321,15.694847049729903,10.056774959850872,16.77238151777328,4.444167753086693,9.369052063131004
Europe,Russia,61.524010000000004,105.318756,4460348,95792,0.02147635117259909,118843545,0.03,8.05,31.91,97.164,24765.954,6.542,10.2267,145934460,8.823,15.18538648,65.63597607999999,19.694457610000004,0.1,0.8240000000000001,17552,15.310737347858137,11.469934453165134,18.593318438137334,10.117225166388193,18.798668174775408,2.1773619482399678,9.772923182515012
Africa,Rwanda,-1.9403,29.873900000000003,21370,301,0.014085166120729995,1102728,0.031,0.8,1.34,4.616999999999999,1854.211,6.571600000000001,8.882800000000001,12952209,494.869,39.76603218000001,57.205714760000006,3.028253062,56,0.543,932,9.969743348313193,5.707110264748875,13.91329766764349,7.5252145476329035,16.37677691071343,6.204293081078989,6.837332814685591
Africa,Saint Helena,-7.946700000000001,-14.355900000000002,10079,108,0.012422360248447204,186726,0.04,2.397,33.33,70.598,1569.888,7.384399999999999,3.3649999999999998,6071,143.366,41.56805305,55.05514182,2.947736623,49.6,0.48000000000000004,142,9.218209330354878,4.68213122712422,12.1373975806802,7.35875955821809,8.711278615130434,4.965400801029393,4.955827057601261
North America,Saint Kitts and Nevis,17.357822000000002,-62.782998000000006,44,188,0.017852652753331658,649297,0.089,2.3,26.759999999999998,87.202,24654.385000000002,5.0368,8.1529,53192,212.865,21.078635799999997,68.62061129,9.880435323000002,2.2,0.779,125,3.784189633918261,5.236441962829949,13.383645518125515,10.112710054116734,10.88166328808229,5.3606581619546105,4.8283137373023015
North America,Saint Lucia,13.909400000000002,-60.9789,4191,58,0.013839179193509903,802126,0.132,1.3,6.41,87.202,12951.839,4.5459,8.9358,183629,293.187,23.5312194,66.71857852,9.677419355000001,2.2,0.759,395,8.340694647925071,4.060443010546419,13.595020981740523,9.468993064767549,12.12067269676513,5.680810630693916,5.978885764901122
North America,Saint Vincent and the Grenadines,12.9843,-61.2872,1723,10,0.005803830528148578,802126,0.132,2.6,13.06,87.202,10727.146,5.8769,8.9967,110947,281.787,26.85844526,65.42821497000001,8.469582569000004,2.2,0.738,80,7.45182223652793,2.302585092994046,13.595020981740523,9.280532817020328,11.616807888788324,5.641151466391949,4.382026634673881
Oceania,Samoa,-13.759,-172.10459999999998,3,39,0.010475423045930701,864692,0,2.61,3.4499999999999997,35.89,6021.557,5.4828,11.5777,198410,69.41300000000001,37.864097369999996,57.20279862000001,4.933104005000001,13.2,0.715,164,1.0986122886681098,3.6635616461296463,13.670128653142106,8.703101142735612,12.198090875788516,4.240074169855307,5.099866427824199
Europe,San Marino,43.9424,12.4578,4603,84,0.018248968064305888,4870430,0.034999999999999996,3.8,61.09,97.164,56861.47,7.364099999999999,12.1587,33938,556.6669999999999,16.400958720000006,65.16070801999999,18.837996060000005,0.2,0.9490000000000001,84,8.434463543817241,4.430816798843313,15.398692786848823,10.94837323784302,10.432290609532771,6.321967215544907,4.430816798843313
Africa,Sao Tome and Principe,0.1864,6.613099999999999,2210,34,0.015384615384615385,267671,0.07300000000000001,2.9,0.53,41.339999999999996,3052.714,6.23,10.7623,219161,212.841,42.14669667,54.89314411,2.960159214,32.3,0.625,33,7.700747794511798,3.5263605246161616,12.497513893419907,8.023786309997622,12.29756189851838,5.360545408082101,3.4965075614664802
Asia,Saudi Arabia,23.885941999999996,45.079162000000004,387794,6643,0.017130228935981474,14812806,0.009,2.7,26.12,94.576,49045.411,5.8356,10.0643,34813867,15.322000000000001,24.86598199,71.72113141,3.4128865999999993,0.2,0.8540000000000001,15334,12.868229549778269,8.80131894766524,16.511002634874092,10.800501903022433,17.365526342385316,2.7292897040946293,9.63782786411884
Africa,Senegal,14.4974,-14.452400000000003,38456,1034,0.02688787185354691,440609,0.07300000000000001,0.4,0.69,20.859,2470.58,4.134099999999999,3.8881,16743930,82.32799999999999,42.83986906999999,54.061654489999995,3.0984764449999997,38,0.512,1365,10.557270009573797,6.9411900550683745,12.995913139832634,7.8122082198704,16.633546362497228,4.410711268533791,7.21890970761906
Europe,Serbia,44.0165,21.0059,581617,5151,0.008856343607563053,3330762,0.311,5.609,31.130000000000003,97.71900000000001,14048.881,8.434,11.918,6804596,80.29100000000001,15.54094253,65.71855405000001,18.74050342,1.1,0.806,1711,13.27356743448541,8.546946149565585,15.018711664608132,9.550298027462016,15.733108824193664,4.385657534970196,7.444833273892193
Africa,Seychelles,-4.679600000000001,55.492000000000004,3996,20,0.005005005005005005,338019,0.046,3.6,21.21,44.6,26382.287000000004,5.0067,10.139199999999999,98340,208.354,23.738732749999997,68.45578530999998,7.805481946999999,1.1,0.7959999999999999,362,8.293049139768444,2.995732273553991,12.730857385903015,10.180448116979061,11.49618614096593,5.339238556148297,5.8916442118257715
Africa,Sierra Leone,8.460555000000001,-11.779889,3962,79,0.019939424533064107,267671,0.07800000000000001,0.7,0.25,19.275,1390.3,13.4209,7.9108,7976985,104.7,40.72431131000001,56.32795207,2.947736623,52.2,0.452,57,8.284504227258497,4.3694478524670215,12.497513893419907,7.2372748301754974,15.892071078485332,4.651099117876491,4.04305126783455
Asia,Singapore,1.2832999999999999,103.8333,60288,30,4.976114649681529e-4,8307697,0,2.4,22.939999999999998,95.803,85535.383,4.4404,12.5689,5850343,7915.731,12.33150315,75.27536736999998,12.393129479999999,0.2,0.9380000000000001,14673,11.006888357936035,3.4011973816621555,15.932692992441613,11.356685405575554,15.582010849967855,8.976607324336067,9.593764349207467
Europe,Slovakia,48.669000000000004,19.699,356985,9426,0.026404470776083027,23335884,0.01,5.819999999999999,34.160000000000004,97.164,30155.152,6.7425,13.268899999999999,5459643,113.12799999999999,15.13545128,64.70613601,20.15841271,0.7,0.8600000000000001,2256,12.785449043072322,9.151227107483676,16.965502819656866,10.314111066495828,15.512893960968036,4.728519921005475,7.721348612617949
Europe,Slovenia,46.151199999999996,14.995500000000002,212040,4011,0.01891624221844935,2500123,0.028999999999999998,4.5,30.86,97.164,31400.84,8.187,13.6175,2078932,102.619,15.10564048,64.70807550999999,20.18628401,0.5,0.917,4425,12.264530215101743,8.296795865770052,14.73185048862815,10.354589923130884,14.547364858272523,4.6310231007771945,8.39502555744203
Oceania,Solomon Islands,-9.6457,160.1562,18,39,0.010475423045930701,423635,0.001,1.4,1.94,35.89,2205.9230000000002,4.684899999999999,7.165799999999999,686878,21.841,40.13119884000001,56.237991230000006,3.6308099299999994,25.1,0.5670000000000001,28,2.8903717578961645,3.6635616461296463,12.956627514414157,7.698901294399184,13.4399119717374,3.0837889373742744,3.332204510175204
Africa,Somalia,5.152149,46.199616000000006,10838,488,0.0450267577043735,2843469,0.046,0.9,0.23,9.831,1998.9260000000002,4.123099999999999,4.6784,15893219,23.5,46.37950567,50.73129052,2.889203812,38,0.47700000000000004,99,9.29081375612606,6.1903154058531475,14.86053534361224,7.600365315305943,16.581403098235437,3.1570004211501135,4.59511985013459
Africa,South Africa,-30.5595,22.9375,1544466,52648,0.0340881573307538,9722821,0.046,2.32,9.05,43.993,12294.875999999998,8.1131,13.3386,59308690,46.754,28.968325049999997,65.61641934000001,5.415255608,18.9,0.709,10472,14.250188777501837,10.871383530135954,16.089986360666554,9.416937869198865,17.898266396233264,3.844899813571846,9.256460307589736
Asia,South Korea,35.907757,127.76692200000001,101757,1722,0.016922668710752087,7451994,0.011,12.27,20.03,94.576,35938.374,4.2163,9.689,51269183,527.9669999999999,23.694979150000005,66.9828933,8.726283826,0.2,0.916,25832,11.530342897007296,7.451241684987676,15.823992205550313,10.48956091724398,17.752600408388133,6.269033781753055,10.15936931243811
Africa,South Sudan,6.877,31.307000000000002,10079,108,0.01071534874491517,128368,0.066,1.1,1.02,7.876,1569.888,9.761,2.1062,11193729,104.7,41.56805305,55.05514182,3.376805136999999,49.2,0.43300000000000005,295,9.218209330354878,4.68213122712422,11.762656417993437,7.35875955821809,16.230864268742497,4.651099117876491,5.68697535633982
Europe,Spain,40.463666999999994,-3.74922,3255324,75010,0.023042253244223924,35523503,0.048,2.9699999999999998,38.720000000000006,97.164,34272.36,8.8731,15.284699999999999,46754783,93.10499999999999,14.57687197,65.77530508,19.647822950000002,1,0.904,82773,14.99580236784162,11.225376716963682,17.385705091721057,10.442094477393987,17.66042711862607,4.5337278885337255,11.323857200238917
Asia,Sri Lanka,7.873054,80.77179699999999,91839,558,0.006075850129030151,2351595,0.03,3.6,10.04,83.24100000000001,11669.077,3.8113999999999995,8.472400000000002,21413250,341.955,23.956462029999997,65.20473220999999,10.838805759999998,0.7,0.7819999999999999,2334,11.42779232299237,6.324358962381311,14.670604379296035,9.3646976304646,16.87952044727081,5.834679149457967,7.755338812846501
Africa,Sudan,12.862800000000002,30.2176,31407,2028,0.0645715923201834,979476,0.043000000000000003,0.8,2.62,23.437,4466.507,6.3418,8.284099999999999,43849269,23.258,40.15570605,56.216976630000005,3.6273173260000005,28.2,0.51,836,10.354786076987464,7.614805364711073,13.794773013769456,8.404361950363324,17.59626860617601,3.1466491588708516,6.728628613084702
South America,Suriname,3.9193,-56.0278,9095,177,0.019461242440901593,1276551,0.21100000000000002,3.1,12.1,67.779,13767.119,6.2298,11.7768,586634,3.6119999999999997,26.911856780000004,66.07301349000001,7.015129728,3.5,0.738,278,9.115480090952223,5.176149732573829,14.05967246786205,9.530038346884087,13.282156394977752,1.284261635554739,5.627621113690637
Europe,Sweden,60.128161000000006,18.643501,780018,13402,0.017181654782325535,10770769,0.10200000000000001,2.22,39.839999999999996,97.164,46949.282999999996,11.018699999999999,18.694900000000004,10099270,24.718,17.625490229999997,62.17594015,20.19856962,0.5,0.9450000000000001,7440,13.567072275322584,9.503159228533116,16.192346448626278,10.756823212954302,16.12797370197164,3.2075317231675435,8.914626127827137
Europe,Switzerland,46.8182,8.2275,592217,10299,0.017390584870072962,4870430,0.052000000000000005,4.53,42.96,97.164,57410.166,12.3463,11.0236,8654618,214.24299999999997,14.940675899999999,66.22132804,18.837996060000005,0.2,0.9550000000000001,10362,13.291628400755672,9.239802082125802,15.398692786848823,10.957976674639822,15.973603609281033,5.367110884832125,9.245900547374733
Asia,Syria,34.802075,38.996815000000005,18356,1227,0.06684462845935933,1694463,0.04,1.5,24.85,70.598,56054.92,5.2914,8.9203,17500657,232.12800000000001,21.56983829,75.66632272,2.5188097289999996,0.2,0.5670000000000001,12045,9.817711775514724,7.112327444710911,14.342876434441187,10.934087203416931,16.67774898104617,5.447288943660437,9.396404915048972
Asia,Taiwan,23.7,121,1020,10,0.00980392156862745,186726,0.004,2.4,24.85,85.198,56054.92,5.2914,8.9203,23816775,232.12800000000001,21.56983829,75.66632272,2.5188097289999996,0.2,0.8380000000000001,12045,6.927557906278317,2.302585092994046,12.1373975806802,10.934087203416931,16.985900722297107,5.447288943660437,9.396404915048972
Asia,Tajikistan,38.861,71.2761,13308,90,0.006762849413886384,2145944,0.186,4.8,21.03,72.70400000000001,2896.9130000000005,7.2288,5.884099999999999,9537642,64.281,37.071079579999996,59.842959210000004,3.0859612120000004,4.8,0.6679999999999999,1035,9.496120637138368,4.499809670330265,14.579090106771721,7.971400966251789,16.070756843061655,4.163264097686699,6.942156705699469
Africa,Tanzania,-6.369028,34.888822,509,21,0.0412573673870334,471022,0.114,0.7,1.6800000000000002,47.952999999999996,2683.304,4.802499999999999,5.1353,59734213,64.699,43.84380656999999,53.53565232000001,2.620541103,49.1,0.529,1364,6.2324480165505225,3.044522437723423,13.06266008103723,7.8948041500077295,17.90541549629106,4.169745745436869,7.218176838403408
Asia,Thailand,15.870032000000002,100.992541,28657,93,0.0032452803852461875,3112999,0.01,2.1,8.05,90.66999999999999,16277.671,3.746,15.0278,69799978,135.132,16.823536209999997,70.77021345000001,12.40625033,0.1,0.777,38178,10.263153020397368,4.532599493153256,14.951097128190156,9.697549570354562,18.061144252546306,4.906252078502889,10.550014712460847
Asia,Timor,-8.874217,125.72753900000001,480,3450,0.011117734263475872,2145944,0.186,5.9,23.74,28.178,6570.102000000001,7.6017,9.519,1318442,87.17599999999999,25.34019489,66.60697096999999,6.092974372999999,30.3,0.606,4150,6.173786103901937,8.146129510025405,14.579090106771721,8.790284636472299,14.091961294426044,4.4679290636745845,8.330863613224745
Africa,Togo,8.6195,0.8248000000000001,9676,107,0.011058288548987185,267671,0.10500000000000001,0.7,0.77,10.475000000000001,1429.8129999999999,6.1995,5.052899999999999,8278737,143.366,40.99835370000001,56.11429871,2.887347591,49.2,0.515,573,9.177403871729918,4.672828834461906,12.497513893419907,7.265298945472142,15.929200978494725,4.965400801029393,6.35088571671474
North America,Trinidad and Tobago,10.691799999999999,-61.22250000000001,7954,142,0.017852652753331658,107309,0.027,3,41.68,89.44300000000001,28763.071,6.978700000000001,11.211199999999998,1399491,266.88599999999997,20.26118068,68.62061129,11.118208019999997,1.6,0.7959999999999999,375,8.981430225767635,4.955827057601261,11.583467802081742,10.266847586384726,14.1516191570488,5.586821600932054,5.926926025970411
Africa,Tunisia,33.886917,9.537499,249703,8705,0.034861415361449405,1218744,0.043000000000000003,2.3,13.03,78.687,10849.297,7.2325,13.627799999999999,11818618,74.228,24.226097269999997,67.18043417999999,8.593468556000001,2,0.74,8299,12.428027490612992,9.07165285220229,14.013331378205153,9.291855564242745,16.28518664263272,4.307141437482092,9.023890304598448
Asia,Turkey,38.9637,35.243300000000005,3179115,30923,0.009726920856905146,37212928,0.119,2.8099999999999996,18.49,94.576,25129.341,4.2163,9.689,84339067,104.91400000000002,24.290822869999996,66.9828933,8.726283826,0.2,0.8200000000000001,45768,14.97211341413641,10.339255522574339,17.432166785751615,10.131791406556705,18.25035574385489,4.653140966935712,10.731340435948365
North America,Turks and Caicos Islands,21.694000000000003,-71.79790000000001,11809,414,0.021140052850132124,2843469,0.04,2.5,23.110000000000003,85.198,9673.366999999998,5.8769,13.315600000000002,38718,37.312,26.85844526,65.42821497000001,8.469582569000004,3.2,0.738,489,9.376617231601282,6.025865973825314,14.86053534361224,9.177131718122386,10.564059887163895,3.6193149907280273,6.192362489474872
Africa,Uganda,1.373333,32.29027500000001,40767,335,0.008217430765079598,924770,0.007,0.5,1.6800000000000002,21.221999999999998,1697.707,6.2654,5.1353,45741000,213.759,46.50001534000001,51.537434469999994,1.962550187,41.6,0.544,1402,10.615628209588607,5.814130531825066,13.737300336927714,7.437033796033628,17.638505609022154,5.364849212193626,7.2456550675945355
Europe,Ukraine,48.3794,31.165599999999998,1694459,33363,0.01968947020848542,7889544,0.29900000000000004,8.8,29.919999999999998,86.979,7894.393,6.9953,7.4239,43733759,77.39,15.93971837,67.35529124,16.704990390000003,0.1,0.779,14104,14.342874073808515,10.415202780486952,15.881048896475074,8.973908039630144,17.593630878990492,4.348857573282368,9.554213724077707
Asia,United Arab Emirates,23.424076,53.847818,453069,1477,0.0032599890965835225,36247630,0.009,1.2,25.279999999999998,94.576,67293.483,3.3343,7.890499999999999,9890400,112.44200000000001,14.712611769999999,84.13083876999998,1.156549456,0.2,0.89,21286,13.023799710746776,7.29776828253138,17.40588455781729,11.116818675877136,16.107075147674855,4.722437533144459,9.96580485860099
Europe,United Kingdom,55.3781,-3.4359999999999995,4343066,126813,0.029198957602762657,116704955,0.004,2.54,28.12,97.164,39753.244,9.631699999999999,18.7396,67886004,272.89799999999997,17.69570052,63.79560384000001,18.50869564,0.2,0.932,36316,15.284091108270012,11.750468839389377,18.575159555652757,10.59044672681545,18.033340444625058,5.609098098995609,10.500013694491647
North America,United States,40,-100,30218683,548828,0.018161876875971067,363513517,0.06899999999999999,2.77,23.830000000000002,87.84700000000001,54225.446,5.7589,11.211199999999998,331002647,35.608000000000004,18.54931712,65.24107673,16.209606139999998,1.2,0.926,79746,17.22397093344889,13.21554037450048,19.711327039941114,10.900905560649724,19.617636930288214,3.5725703317135533,11.286601862649388
South America,Uruguay,-32.522800000000004,-55.765800000000006,95278,901,0.009456537710699217,1276551,0.14200000000000002,2.8,50.790000000000006,77.15899999999999,20551.409,9.296199999999999,19.775499999999997,3473727,19.751,20.45807101,64.60068856,14.941240429999999,0.1,0.8170000000000001,3469,11.464554213044808,6.803505257608338,14.05967246786205,9.93068478205083,15.060738638930209,2.9832041229767206,8.15162164696975
Asia,Uzbekistan,41.37749099999999,64.585262,82146,625,0.0076084045479999024,2251884,0.036,4,23.74,49.839,6253.104,6.4144,10.1703,33469199,76.134,28.797813310000002,66.60697096999999,4.595215725,15,0.72,5346,11.316253430861812,6.437751649736401,14.62727775714595,8.740833259445619,17.32613614102184,4.332494945642832,8.584103896698863
Oceania,Vanuatu,-15.376700000000001,166.9592,3,39,0.010475423045930701,440609,0.001,2.61,1.6500000000000001,25.209,2921.909,3.3168999999999995,5.3016000000000005,307150,22.662,38.71055949,57.673351520000004,3.6160889949999993,13.2,0.609,116,1.0986122886681098,3.6635616461296463,12.995913139832634,7.979992448772986,12.635091506592074,3.120689512958375,4.7535901911063645
Europe,Vatican,41.9029,12.453400000000002,27,56,0.012422360248447204,186726,0.04,2.397,33.33,85.198,48472.545,9.761,15.3043,809,508.54400000000004,16.400958720000006,64.51118404000002,19.60531972,0.2,0.9440000000000001,12749,3.295836866004329,4.02535169073515,12.1373975806802,10.788752834166171,6.695798917058491,6.231551740752079,9.453208116138121
South America,Venezuela,6.4238,-66.5897,155663,1555,0.009989528661274677,7106703,0.16,0.8,21.85,67.779,16745.022,7.2263,16.0513,28435943,36.253,24.595525879999997,66.07301349000001,8.765830007000002,1.3,0.711,3904,11.955448693101657,7.349230824613334,15.776548981151096,9.725856299052465,17.163164501528165,3.590522136497068,8.269756947532983
Asia,Vietnam,14.058323999999999,108.27719900000001,2586,35,0.013534416086620264,2482302,0.14700000000000002,2.6,6.7700000000000005,85.84700000000001,6171.884,5.5533,6.0787,97338583,308.127,23.213827610000003,69.23249944000001,7.553672942,2,0.704,5346,7.857867559331803,3.5553480614894135,14.724696913412444,8.727759418750372,18.393706005041516,5.7305120356481,8.584103896698863
Asia,Yemen,15.552727,48.516388,3969,832,0.20962459057697153,2251884,0.186,0.7,5.25,49.542,1479.147,4.2346,2.2287000000000003,29825968,53.508,31.09919594,64.18303486999999,4.595215725,18.8,0.47000000000000003,367,8.286269452783065,6.723832440821209,14.62727775714595,7.299220849252524,17.210889981414862,3.9798311754333398,5.905361848054571
Africa,Zambia,-13.133897,27.849331999999997,87583,1198,0.013678453581174428,1218744,0.037,2,11.870000000000001,13.937999999999999,3689.251,4.470300000000001,6.8567,18383956,22.994999999999997,44.46250860000001,53.422176660000005,2.1153147380000004,57.5,0.584,1072,11.380342194164701,7.088408778675395,14.013331378205153,8.213178735401325,16.726988885682257,3.135276800991887,6.977281341630747
Africa,Zimbabwe,-19.015438,29.154857000000007,36818,1519,0.04125699386169808,423635,0.014,1.7,2.1,36.791000000000004,1899.775,6.6358999999999995,15.234299999999998,14862927,42.729000000000006,42.15812701,54.86126493,2.9806080629999996,21.4,0.5710000000000001,2580,10.513742135006508,7.325807502595773,12.956627514414157,7.549490737089574,16.514380549593707,3.754877846620559,7.855544677915663
